[
  {
    "id": "67af8c16f7aa5095f021029e",
    "address": "123 Tech Lane",
    "bio": "Passionate about creating efficient and scalable software solutions",
    "city": "San Francisco",
    "country": "United States",
    "coverPhoto": "https://res.cloudinary.com/demo/image/upload/v1/samples/landscapes/architecture-signs",
    "dateOfBirth": "1990-05-15T00:00:00.000Z",
    "description": "Experienced software engineer with a focus on web technologies",
    "designation": "Software Engineer",
    "gender": "Male",
    "image": "https://res.cloudinary.com/demo/image/upload/v1/samples/people/smiling-man",
    "latitude": 37.7749,
    "longitude": -122.4194,
    "name": "John Smith",
    "phone": "555-123-4567",
    "postalCode": "94105",
    "seoMeta": "John Smith - Software Engineer in San Francisco",
    "state": "California",
    "userId": "67ecb199841d28207df9d5b5",
    "website": "https://johnsmith.dev"
  },
  {
    "id": "67af8c16f7aa5095f021029f",
    "address": "456 Creative Ave",
    "bio": "Creating user-centered designs that delight and inspire",
    "city": "New York",
    "country": "United States",
    "coverPhoto": "https://res.cloudinary.com/demo/image/upload/v1/samples/landscapes/beach-boat",
    "dateOfBirth": "1988-09-22T00:00:00.000Z",
    "description": "Innovative UX designer with a keen eye for detail",
    "designation": "UX Designer",
    "gender": "Female",
    "image": "https://res.cloudinary.com/demo/image/upload/v1/samples/people/jazz",
    "latitude": 40.7128,
    "longitude": -74.006,
    "name": "Emily Johnson",
    "phone": "555-234-5678",
    "postalCode": "10001",
    "seoMeta": "Emily Johnson - UX Designer in New York City",
    "state": "New York",
    "userId": "67ecb1b8841d28207df9d5b6",
    "website": "https://emilyjohnsondesign.com"
  },
  {
    "id": "67af8c16f7aa5095f0210300",
    "address": "789 Analytics Blvd",
    "bio": "Turning data into actionable insights",
    "city": "Boston",
    "country": "United States",
    "coverPhoto": "https://res.cloudinary.com/demo/image/upload/v1/samples/landscapes/nature-mountains",
    "dateOfBirth": "1992-11-30T00:00:00.000Z",
    "description": "Data scientist specializing in machine learning and predictive modeling",
    "designation": "Data Scientist",
    "gender": "Male",
    "image": "https://res.cloudinary.com/demo/image/upload/v1/samples/people/boy-snow-hoodie",
    "latitude": 42.3601,
    "longitude": -71.0589,
    "name": "Michael Davis",
    "phone": "555-345-6789",
    "postalCode": "02108",
    "seoMeta": "Michael Davis - Data Scientist in Boston",
    "state": "Massachusetts",
    "userId": "67ecb1cb841d28207df9d5b7",
    "website": "https://michaeldavisdata.net"
  },
  {
    "id": "67af8c16f7aa5095f0210301",
    "address": "101 Brand Street",
    "bio": "Crafting compelling marketing strategies that drive growth",
    "city": "Chicago",
    "country": "United States",
    "coverPhoto": "https://res.cloudinary.com/demo/image/upload/v1/samples/landscapes/girl-urban-view",
    "dateOfBirth": "1985-07-18T00:00:00.000Z",
    "description": "Results-driven marketing professional with a passion for digital strategies",
    "designation": "Marketing Manager",
    "gender": "Female",
    "image": "https://res.cloudinary.com/demo/image/upload/v1/samples/people/kitchen-bar",
    "latitude": 41.8781,
    "longitude": -87.6298,
    "name": "Sarah Wilson",
    "phone": "555-456-7890",
    "postalCode": "60601",
    "seoMeta": "Sarah Wilson - Marketing Manager in Chicago",
    "state": "Illinois",
    "userId": "67ecb1d8841d28207df9d5b8",
    "website": "https://sarahwilsonmarketing.com"
  },
  {
    "id": "67af8c16f7aa5095f0210302",
    "address": "202 Innovation Way",
    "bio": "Building products that solve real-world problems",
    "city": "Seattle",
    "country": "United States",
    "coverPhoto": "https://res.cloudinary.com/demo/image/upload/v1/samples/landscapes/architecture-signs",
    "dateOfBirth": "1987-03-25T00:00:00.000Z",
    "description": "Experienced product manager with a track record of successful launches",
    "designation": "Product Manager",
    "gender": "Male",
    "image": "https://res.cloudinary.com/demo/image/upload/v1/samples/people/bicycle",
    "latitude": 47.6062,
    "longitude": -122.3321,
    "name": "David Lee",
    "phone": "555-567-8901",
    "postalCode": "98101",
    "seoMeta": "David Lee - Product Manager in Seattle",
    "state": "Washington",
    "userId": "67ecb1e6841d28207df9d5b9",
    "website": "https://davidleeproduct.io"
  },
  {
    "id": "67af8c16f7aa5095f0210303",
    "address": "303 Talent Avenue",
    "bio": "Fostering positive work environments and employee growth",
    "city": "Austin",
    "country": "United States",
    "coverPhoto": "https://res.cloudinary.com/demo/image/upload/v1/samples/landscapes/beach-boat",
    "dateOfBirth": "1991-01-12T00:00:00.000Z",
    "description": "HR professional dedicated to creating inclusive and productive workplaces",
    "designation": "HR Specialist",
    "gender": "Female",
    "image": "https://res.cloudinary.com/demo/image/upload/v1/samples/people/smiling-woman",
    "latitude": 30.2672,
    "longitude": -97.7431,
    "name": "Lisa Brown",
    "phone": "555-678-9012",
    "postalCode": "78701",
    "seoMeta": "Lisa Brown - HR Specialist in Austin",
    "state": "Texas",
    "userId": "67ecb1f2841d28207df9d5ba",
    "website": "https://lisabrownhr.com"
  }
  
]