[
  {
    "_id": {
      "$oid": "67af8c16f7aa5095f021029e"
    },
    "address": "123 Tech Lane",
    "bio": "Passionate about creating efficient and scalable software solutions",
    "city": "San Francisco",
    "country": "United States",
    "coverPhoto": "https://res.cloudinary.com/demo/image/upload/v1/samples/landscapes/architecture-signs",
    "dateOfBirth": {
      "$date": "1990-05-15T00:00:00.000Z"
    },
    "description": "Experienced software engineer with a focus on web technologies",
    "designation": "Software Engineer",
    "gender": "Male",
    "image": "https://res.cloudinary.com/demo/image/upload/v1/samples/people/smiling-man",
    "latitude": 37.7749,
    "longitude": -122.4194,
    "name": "John Smith",
    "phone": "555-123-4567",
    "postalCode": "94105",
    "seoMeta": "John Smith - Software Engineer in San Francisco",
    "state": "California",
    "userId": {
      "$oid": "67ecaffc841d28207df9d5aa"
    },
    "website": "https://johnsmith.dev"
  },
  {
    "_id": {
      "$oid": "67af8c16f7aa5095f021029f"
    },
    "address": "456 Creative Ave",
    "bio": "Creating user-centered designs that delight and inspire",
    "city": "New York",
    "country": "United States",
    "coverPhoto": "https://res.cloudinary.com/demo/image/upload/v1/samples/landscapes/beach-boat",
    "dateOfBirth": {
      "$date": "1988-09-22T00:00:00.000Z"
    },
    "description": "Innovative UX designer with a keen eye for detail",
    "designation": "UX Designer",
    "gender": "Female",
    "image": "https://res.cloudinary.com/demo/image/upload/v1/samples/people/jazz",
    "latitude": 40.7128,
    "longitude": -74.006,
    "name": "Emily Johnson",
    "phone": "555-234-5678",
    "postalCode": "10001",
    "seoMeta": "Emily Johnson - UX Designer in New York City",
    "state": "New York",
    "userId": {
      "$oid": "67ecb199841d28207df9d5b5"
    },
    "website": "https://emilyjohnsondesign.com"
  },
  {
    "_id": {
      "$oid": "67af8c16f7aa5095f0210300"
    },
    "address": "789 Analytics Blvd",
    "bio": "Turning data into actionable insights",
    "city": "Boston",
    "country": "United States",
    "coverPhoto": "https://res.cloudinary.com/demo/image/upload/v1/samples/landscapes/nature-mountains",
    "dateOfBirth": {
      "$date": "1992-11-30T00:00:00.000Z"
    },
    "description": "Data scientist specializing in machine learning and predictive modeling",
    "designation": "Data Scientist",
    "gender": "Male",
    "image": "https://res.cloudinary.com/demo/image/upload/v1/samples/people/boy-snow-hoodie",
    "latitude": 42.3601,
    "longitude": -71.0589,
    "name": "Michael Davis",
    "phone": "555-345-6789",
    "postalCode": "02108",
    "seoMeta": "Michael Davis - Data Scientist in Boston",
    "state": "Massachusetts",
    "userId": {
      "$oid": "67ecb1b8841d28207df9d5b6"
    },
    "website": "https://michaeldavisdata.net"
  },
  {
    "_id": {
      "$oid": "67af8c16f7aa5095f0210301"
    },
    "address": "101 Brand Street",
    "bio": "Crafting compelling marketing strategies that drive growth",
    "city": "Chicago",
    "country": "United States",
    "coverPhoto": "https://res.cloudinary.com/demo/image/upload/v1/samples/landscapes/girl-urban-view",
    "dateOfBirth": {
      "$date": "1985-07-18T00:00:00.000Z"
    },
    "description": "Results-driven marketing professional with a passion for digital strategies",
    "designation": "Marketing Manager",
    "gender": "Female",
    "image": "https://res.cloudinary.com/demo/image/upload/v1/samples/people/kitchen-bar",
    "latitude": 41.8781,
    "longitude": -87.6298,
    "name": "Sarah Wilson",
    "phone": "555-456-7890",
    "postalCode": "60601",
    "seoMeta": "Sarah Wilson - Marketing Manager in Chicago",
    "state": "Illinois",
    "userId": {
      "$oid": "67ecb1cb841d28207df9d5b7"
    },
    "website": "https://sarahwilsonmarketing.com"
  },
  {
    "_id": {
      "$oid": "67af8c16f7aa5095f0210302"
    },
    "address": "202 Innovation Way",
    "bio": "Building products that solve real-world problems",
    "city": "Seattle",
    "country": "United States",
    "coverPhoto": "https://res.cloudinary.com/demo/image/upload/v1/samples/landscapes/architecture-signs",
    "dateOfBirth": {
      "$date": "1987-03-25T00:00:00.000Z"
    },
    "description": "Experienced product manager with a track record of successful launches",
    "designation": "Product Manager",
    "gender": "Male",
    "image": "https://res.cloudinary.com/demo/image/upload/v1/samples/people/bicycle",
    "latitude": 47.6062,
    "longitude": -122.3321,
    "name": "David Lee",
    "phone": "555-567-8901",
    "postalCode": "98101",
    "seoMeta": "David Lee - Product Manager in Seattle",
    "state": "Washington",
    "userId": {
      "$oid": "67ecb1d8841d28207df9d5b8"
    },
    "website": "https://davidleeproduct.io"
  },
  {
    "_id": {
      "$oid": "67af8c16f7aa5095f0210303"
    },
    "address": "303 Talent Avenue",
    "bio": "Fostering positive work environments and employee growth",
    "city": "Austin",
    "country": "United States",
    "coverPhoto": "https://res.cloudinary.com/demo/image/upload/v1/samples/landscapes/beach-boat",
    "dateOfBirth": {
      "$date": "1991-01-12T00:00:00.000Z"
    },
    "description": "HR professional dedicated to creating inclusive and productive workplaces",
    "designation": "HR Specialist",
    "gender": "Female",
    "image": "https://res.cloudinary.com/demo/image/upload/v1/samples/people/smiling-woman",
    "latitude": 30.2672,
    "longitude": -97.7431,
    "name": "Lisa Brown",
    "phone": "555-678-9012",
    "postalCode": "78701",
    "seoMeta": "Lisa Brown - HR Specialist in Austin",
    "state": "Texas",
    "userId": {
      "$oid": "67ecb1e6841d28207df9d5b9"
    },
    "website": "https://lisabrownhr.com"
  },
  {
    "_id": {
      "$oid": "67af8c16f7aa5095f0210304"
    },
    "address": "404 Money Lane",
    "bio": "Providing strategic financial insights for business growth",
    "city": "Miami",
    "country": "United States",
    "coverPhoto": "https://res.cloudinary.com/demo/image/upload/v1/samples/landscapes/architecture-signs",
    "dateOfBirth": {
      "$date": "1989-06-08T00:00:00.000Z"
    },
    "description": "Experienced financial analyst with a focus on investment strategies",
    "designation": "Financial Analyst",
    "gender": "Male",
    "image": "https://res.cloudinary.com/demo/image/upload/v1/samples/people/boy-snow-hoodie",
    "latitude": 25.7617,
    "longitude": -80.1918,
    "name": "Robert Taylor",
    "phone": "555-789-0123",
    "postalCode": "33101",
    "seoMeta": "Robert Taylor - Financial Analyst in Miami",
    "state": "Florida",
    "userId": {
      "$oid": "67ecb1f2841d28207df9d5ba"
    },
    "website": "https://roberttaylorfinance.net"
  },
  {
    "_id": {
      "$oid": "67af8c16f7aa5095f0210305"
    },
    "address": "505 Story Street",
    "bio": "Crafting compelling narratives that engage and convert",
    "city": "Los Angeles",
    "country": "United States",
    "coverPhoto": "https://res.cloudinary.com/demo/image/upload/v1/samples/landscapes/girl-urban-view",
    "dateOfBirth": {
      "$date": "1993-12-03T00:00:00.000Z"
    },
    "description": "Creative content strategist with a knack for storytelling",
    "designation": "Content Strategist",
    "gender": "Female",
    "image": "https://res.cloudinary.com/demo/image/upload/v1/samples/people/jazz",
    "latitude": 34.0522,
    "longitude": -118.2437,
    "name": "Jennifer Martinez",
    "phone": "555-890-1234",
    "postalCode": "90001",
    "seoMeta": "Jennifer Martinez - Content Strategist in Los Angeles",
    "state": "California",
    "userId": {
      "$oid": "67ecb20d841d28207df9d5bb"
    },
    "website": "https://jennifermartinezcontent.com"
  },
  {
    "_id": {
      "$oid": "67af8c16f7aa5095f0210306"
    },
    "address": "606 Cloud Avenue",
    "bio": "Streamlining development processes and enhancing system reliability",
    "city": "Denver",
    "country": "United States",
    "coverPhoto": "https://res.cloudinary.com/demo/image/upload/v1/samples/landscapes/nature-mountains",
    "dateOfBirth": {
      "$date": "1986-08-20T00:00:00.000Z"
    },
    "description": "Experienced DevOps engineer specializing in cloud infrastructure and automation",
    "designation": "DevOps Engineer",
    "gender": "Male",
    "image": "https://res.cloudinary.com/demo/image/upload/v1/samples/people/smiling-man",
    "latitude": 39.7392,
    "longitude": -104.9903,
    "name": "William Chen",
    "phone": "555-901-2345",
    "postalCode": "80201",
    "seoMeta": "William Chen - DevOps Engineer in Denver",
    "state": "Colorado",
    "userId": {
      "$oid": "67ecb21d841d28207df9d5bc"
    },
    "website": "https://williamchendevops.io"
  },
  {
    "_id": {
      "$oid": "67af8c16f7aa5095f0210307"
    },
    "address": "707 Eco Lane",
    "bio": "Developing sustainable solutions for a greener future",
    "city": "Portland",
    "country": "United States",
    "coverPhoto": "https://res.cloudinary.com/demo/image/upload/v1/samples/landscapes/beach-boat",
    "dateOfBirth": {
      "$date": "1994-04-17T00:00:00.000Z"
    },
    "description": "Passionate environmental scientist focused on climate change mitigation",
    "designation": "Environmental Scientist",
    "gender": "Female",
    "image": "https://res.cloudinary.com/demo/image/upload/v1/samples/people/kitchen-bar",
    "latitude": 45.5155,
    "longitude": -122.6789,
    "name": "Amanda Rodriguez",
    "phone": "555-012-3456",
    "postalCode": "97201",
    "seoMeta": "Amanda Rodriguez - Environmental Scientist in Portland",
    "state": "Oregon",
    "userId": {
      "$oid": "67ecb264841d28207df9d5bd"
    },
    "website": "https://amandarodriguezscience.org"
  },
  {
    "_id": {
      "$oid": "67bd72f274f26952bb9e7d9e"
    },
    "address": "79,80 Dada villa, Garments Goli, South Mugda",
    "bio": null,
    "city": "Mugdapara",
    "country": "Bangladesh",
    "coverPhoto": "https://res.cloudinary.com/imsaifun/image/upload/v1740468944/jobtree/nqxsu2crti9uzoblh78f.jpg",
    "dateOfBirth": {
      "$date": "2025-02-24T18:00:00.000Z"
    },
    "description": null,
    "designation": null,
    "gender": "Male",
    "image": "https://res.cloudinary.com/imsaifun/image/upload/v1740468959/jobtree/kekzwkh0a2qbyk3l9vd9.webp",
    "latitude": null,
    "longitude": null,
    "name": "Saiful Islam",
    "phone": "01629599859",
    "postalCode": "1214",
    "seoMeta": null,
    "state": null,
    "userId": {
      "$oid": "66a935f78b2ac142905b3710"
    },
    "website": null
  },
  {
    "_id": {
      "$oid": "67ebfd7937af8e337226e346"
    },
    "address": "32, South Mugda",
    "city": "Dhaka",
    "country": "Bangladesh",
    "dateOfBirth": {
      "$date": "2025-03-31T18:00:00.000Z"
    },
    "gender": "Male",
    "name": "Golam Mostafa",
    "phone": "01843666660",
    "postalCode": "1214",
    "userId": {
      "$oid": "67024657e31ceb06da0958ec"
    }
  },
  {
    "_id": {
      "$oid": "67ebfe3037af8e337226e348"
    },
    "address": "32, South Mugda",
    "city": "Dhaka",
    "country": "Bangladesh",
    "dateOfBirth": {
      "$date": "2025-03-31T18:00:00.000Z"
    },
    "designation": "Fullstack developer",
    "gender": "Male",
    "latitude": 22.9077273,
    "longitude": 57.5646116,
    "name": "Saiful Islam",
    "phone": "01843666660",
    "postalCode": "1214",
    "state": "Dhaka",
    "userId": null,
    "website": "https://example.com"
  }
]